date: '2026-07-09'
country: JPN
city: yokohama
places:
  - id: fujinomiya
    name: Fujinomiya
    lon: 138.621
    lat: 35.222
    city: fujinomiya
  - id: fujisan-world-heritage-center
    name: Fujisan World Heritage Centre
    lon: 138.609
    lat: 35.224
    city: fujinomiya
  - id: fujisan-hongu-sengen-taisha
    name: Fujisan Hongū Sengen Taisha
    lon: 138.610
    lat: 35.227
    city: fujinomiya
  - id: shiraito-falls
    name: Shiraito Falls
    lon: 138.589
    lat: 35.313
    city: fujinomiya
  - id: wasabi-farm
    name: Wasabi Farm
    lon: 138.977
    lat: 35.312
    city: oyama
  - id: yokohama
    name: Yokohama
    lon: 139.638
    lat: 35.444
  - id: shin-yokohama-ramen-museum
    name: Shin-Yokohama Ramen Museum
    lon: 139.615
    lat: 35.510
