date: '2024-03-29'
country: JPN
city: tokyo
places:
  - id: arakurayama-sengen-park
    name: Arakurayama Sengen Park
    lon: 138.804
    lat: 35.497
    city: shimoyoshida
  - id: chureito-pagoda
    name: Chureito Pagoda
    lon: 138.804
    lat: 35.492
    city: shimoyoshida
  - id: honcho-street-fujiyoshida
    name: Honchō Street
    lon: 138.795
    lat: 35.490
    city: shimoyoshida
  - id: shimoyoshida-station
    name: Shimoyoshida Station
    lon: 138.802
    lat: 35.490
    city: shimoyoshida
  - id: kawaguchiko-lawson
    name: Kawaguchiko Lawson (Mt. Fuji view)
    lon: 138.751
    lat: 35.517
    city: shimoyoshida
  - id: akihabara
    name: Akihabara
    neighborhood: Akihabara
    lon: 139.771
    lat: 35.699
